[
  {
    "id": "69ffc2cf7e6d6316e36ffa75",
    "name": "Spring-Ford 10-11 Office",
    "address": "350 S Lewis Rd",
    "city": "Royersford",
    "state": "PA",
    "zip": "19468",
    "latitude": 40.1748,
    "longitude": -75.5312,
    "type": "school",
    "status": "active",
    "featured": false
  },
  {
    "id": "69ffc2cf7e6d6316e36ffa77",
    "name": "Spring City Public Library (2 boxes)",
    "address": "245 Broad St",
    "city": "Spring City",
    "state": "PA",
    "zip": "19475",
    "latitude": 40.1784,
    "longitude": -75.5488,
    "type": "community_center",
    "status": "active",
    "featured": true
  },
  {
    "id": "69ffc2cf7e6d6316e36ffa78",
    "name": "Grace Crossing Community Church",
    "address": "248 Church St",
    "city": "Phoenixville",
    "state": "PA",
    "zip": "19460",
    "latitude": 40.1302,
    "longitude": -75.5146,
    "type": "community_center",
    "status": "active",
    "featured": false
  },
  {
    "id": "69ffc2cf7e6d6316e36ffa79",
    "name": "Al Ahad Islamic Center",
    "address": "1500 Ridgeview Dr",
    "city": "Allentown",
    "state": "PA",
    "zip": "18104",
    "latitude": 40.6085,
    "longitude": -75.5174,
    "type": "community_center",
    "status": "active",
    "featured": false
  },
  {
    "id": "69ffc2cf7e6d6316e36ffa7a",
    "name": "Limerick Elementary",
    "address": "81 Limerick Center Rd",
    "city": "Royersford",
    "state": "PA",
    "zip": "19468",
    "latitude": 40.2244,
    "longitude": -75.5215,
    "type": "school",
    "status": "active",
    "featured": false
  },
  {
    "id": "69ffc2cf7e6d6316e36ffa7b",
    "name": "Spring City Elementary",
    "address": "190 S Wall St",
    "city": "Spring City",
    "state": "PA",
    "zip": "19475",
    "latitude": 40.1759,
    "longitude": -75.5507,
    "type": "school",
    "status": "active",
    "featured": false
  },
  {
    "id": "69ffc2cf7e6d6316e36ffa7c",
    "name": "Oaks Elementary",
    "address": "325 Oaks School Dr",
    "city": "Oaks",
    "state": "PA",
    "zip": "19456",
    "latitude": 40.1351,
    "longitude": -75.4564,
    "type": "school",
    "status": "active",
    "featured": false
  },
  {
    "id": "69ffc2cf7e6d6316e36ffa7d",
    "name": "Brooke Elementary",
    "address": "339 N Lewis Rd",
    "city": "Royersford",
    "state": "PA",
    "zip": "19468",
    "latitude": 40.2002,
    "longitude": -75.5298,
    "type": "school",
    "status": "active",
    "featured": false
  },
  {
    "id": "69ffc2cf7e6d6316e36ffa7e",
    "name": "Spring-Ford 9th Grade Center",
    "address": "400 S Lewis Rd",
    "city": "Royersford",
    "state": "PA",
    "zip": "19468",
    "latitude": 40.174,
    "longitude": -75.5318,
    "type": "school",
    "status": "active",
    "featured": false
  },
  {
    "id": "69ffc2cf7e6d6316e36ffa7f",
    "name": "Spring City Regeneration Church",
    "address": "45 N Church St",
    "city": "Spring City",
    "state": "PA",
    "zip": "19475",
    "latitude": 40.1805,
    "longitude": -75.5479,
    "type": "community_center",
    "status": "active",
    "featured": false
  },
  {
    "id": "69ffc2cf7e6d6316e36ffa80",
    "name": "St. Mary of the Assumption Parish (2 boxes)",
    "address": "100 St Marys St",
    "city": "Phoenixville",
    "state": "PA",
    "zip": "19460",
    "latitude": 40.1317,
    "longitude": -75.5155,
    "type": "community_center",
    "status": "active",
    "featured": false
  },
  {
    "id": "69ffc2cf7e6d6316e36ffa81",
    "name": "Sandy Run Middle School",
    "address": "520 Twining Rd",
    "city": "Dresher",
    "state": "PA",
    "zip": "19025",
    "latitude": 40.1472,
    "longitude": -75.1724,
    "type": "school",
    "status": "active",
    "featured": false
  },
  {
    "id": "69ffc2cf7e6d6316e36ffa82",
    "name": "Zion AME Church",
    "address": "1600 S 21st St #6",
    "city": "Philadelphia",
    "state": "PA",
    "zip": "19145",
    "latitude": 39.929,
    "longitude": -75.1787,
    "type": "community_center",
    "status": "active",
    "featured": false
  },
  {
    "id": "69ffc2cf7e6d6316e36ffa83",
    "name": "Regal UA King of Prussia",
    "address": "300 Goddard Blvd",
    "city": "King of Prussia",
    "state": "PA",
    "zip": "19406",
    "latitude": 40.0865,
    "longitude": -75.3836,
    "type": "business",
    "status": "active",
    "featured": false
  },
  {
    "id": "69ffc2cf7e6d6316e36ffa84",
    "name": "Siepser Eyecare",
    "address": "860 E Swedesford Rd",
    "city": "Wayne",
    "state": "PA",
    "zip": "19087",
    "latitude": 40.0588,
    "longitude": -75.3765,
    "type": "business",
    "status": "active",
    "featured": true
  }
]
